{
  "features": [
    {
      "geometry": {
        "coordinates": [
          168.850182,
          -46.32672
        ],
        "type": "Point"
      },
      "id": "ci2tjvr1l00gjcwqmrrhbbb7i",
      "properties": {
        "description": "",
        "id": "marker-i2tjsif6x1",
        "marker-color": "",
        "marker-size": "",
        "marker-symbol": "monument",
        "name": "Wyndham war memorial",
        "title": "Wyndham war memorial"
      },
      "type": "Feature"
    },
    {
      "geometry": {
        "coordinates": [
          174.123006,
          -35.263193
        ],
        "type": "Point"
      },
      "id": "ci2tjvr1n00gkcwqmy4u8tojx",
      "properties": {
        "description": "",
        "id": "marker-i2tjsieu1",
        "marker-color": "",
        "marker-size": "",
        "marker-symbol": "monument",
        "name": "HMS Hazard memorial",
        "title": "HMS Hazard memorial"
      },
      "type": "Feature"
    },
    {
      "geometry": {
        "coordinates": [
          174.123129,
          -35.263123
        ],
        "type": "Point"
      },
      "id": "ci2tjvr1o00glcwqmd7tf4sqp",
      "properties": {
        "description": "",
        "id": "marker-i2tjsieu2",
        "marker-color": "",
        "marker-size": "",
        "marker-symbol": "monument",
        "name": "Kororareka residents memorial",
        "title": "Kororareka residents memorial"
      },
      "type": "Feature"
    },
    {
      "geometry": {
        "coordinates": [
          173.854634,
          -35.377533
        ],
        "type": "Point"
      },
      "id": "ci2tjvr1p00gmcwqmni4ho0p0",
      "properties": {
        "description": "",
        "id": "marker-i2tjsieu3",
        "marker-color": "",
        "marker-size": "",
        "marker-symbol": "monument",
        "name": "Ohaeawai NZ Wars memorial cross",
        "title": "Ohaeawai NZ Wars memorial cross"
      },
      "type": "Feature"
    },
    {
      "geometry": {
        "coordinates": [
          173.75042,
          -35.332421
        ],
        "type": "Point"
      },
      "id": "ci2tjvr1q00gncwqmck45d0d0",
      "properties": {
        "description": "",
        "id": "marker-i2tjsieu4",
        "marker-color": "",
        "marker-size": "",
        "marker-symbol": "monument",
        "name": "Okaihau NZ Wars memorial",
        "title": "Okaihau NZ Wars memorial"
      },
      "type": "Feature"
    },
    {
      "geometry": {
        "coordinates": [
          174.123295,
          -35.263197
        ],
        "type": "Point"
      },
      "id": "ci2tjvr1s00gocwqmlsdhb8vk",
      "properties": {
        "description": "",
        "id": "marker-i2tjsieu5",
        "marker-color": "",
        "marker-size": "",
        "marker-symbol": "monument",
        "name": "Waka Nene headstone",
        "title": "Waka Nene headstone"
      },
      "type": "Feature"
    },
    {
      "geometry": {
        "coordinates": [
          173.96901,
          -35.99577
        ],
        "type": "Point"
      },
      "id": "ci2tjvr1t00gpcwqm2j8co9rt",
      "properties": {
        "description": "",
        "id": "marker-i2tjsieu6",
        "marker-color": "",
        "marker-size": "",
        "marker-symbol": "monument",
        "name": "Arapohue memorial gate",
        "title": "Arapohue memorial gate"
      },
      "type": "Feature"
    },
    {
      "geometry": {
        "coordinates": [
          173.391085,
          -35.258739
        ],
        "type": "Point"
      },
      "id": "ci2tjvr1u00gqcwqmskw932nu",
      "properties": {
        "description": "",
        "id": "marker-i2tjsieu7",
        "marker-color": "",
        "marker-size": "",
        "marker-symbol": "monument",
        "name": "Broadwood roll of honour",
        "title": "Broadwood roll of honour"
      },
      "type": "Feature"
    },
    {
      "geometry": {
        "coordinates": [
          173.875084,
          -35.316541
        ],
        "type": "Point"
      },
      "id": "ci2tjvr1v00grcwqm3nfzvlwt",
      "properties": {
        "description": "",
        "id": "marker-i2tjsieu8",
        "marker-color": "",
        "marker-size": "",
        "marker-symbol": "monument",
        "name": "Church of St John, Waimate North",
        "title": "Church of St John, Waimate North"
      },
      "type": "Feature"
    },
    {
      "geometry": {
        "coordinates": [
          173.868453,
          -35.943598
        ],
        "type": "Point"
      },
      "id": "ci2tjvr1x00gscwqm5g31amux",
      "properties": {
        "description": "",
        "id": "marker-i2tjsiev9",
        "marker-color": "",
        "marker-size": "",
        "marker-symbol": "monument",
        "name": "Dargaville memorial band rotunda",
        "title": "Dargaville memorial band rotunda"
      },
      "type": "Feature"
    },
    {
      "geometry": {
        "coordinates": [
          173.868217,
          -35.941396
        ],
        "type": "Point"
      },
      "id": "ci2tjvr1y00gtcwqmzh8v65iu",
      "properties": {
        "description": "",
        "id": "marker-i2tjsieva",
        "marker-color": "",
        "marker-size": "",
        "marker-symbol": "monument",
        "name": "Dargaville war memorial clock",
        "title": "Dargaville war memorial clock"
      },
      "type": "Feature"
    },
    {
      "geometry": {
        "coordinates": [
          173.231047,
          -35.264034
        ],
        "type": "Point"
      },
      "id": "ci2tjvr1z00gucwqmc2fj5w0s",
      "properties": {
        "description": "",
        "id": "marker-i2tjsievb",
        "marker-color": "",
        "marker-size": "",
        "marker-symbol": "monument",
        "name": "Herekino war memorial",
        "title": "Herekino war memorial"
      },
      "type": "Feature"
    },
    {
      "geometry": {
        "coordinates": [
          174.57241,
          -35.83752
        ],
        "type": "Point"
      },
      "id": "ci2tjvr2000gvcwqmt0zw95dt",
      "properties": {
        "description": "",
        "id": "marker-i2tjsievc",
        "marker-color": "",
        "marker-size": "",
        "marker-symbol": "monument",
        "name": "HMS Puriri memorial",
        "title": "HMS Puriri memorial"
      },
      "type": "Feature"
    },
    {
      "geometry": {
        "coordinates": [
          173.591908,
          -35.356123
        ],
        "type": "Point"
      },
      "id": "ci2tjvr2100gwcwqmut4j5n0g",
      "properties": {
        "description": "",
        "id": "marker-i2tjsievd",
        "marker-color": "",
        "marker-size": "",
        "marker-symbol": "monument",
        "name": "Horeke war memorial",
        "title": "Horeke war memorial"
      },
      "type": "Feature"
    },
    {
      "geometry": {
        "coordinates": [
          173.09794,
          -34.79572
        ],
        "type": "Point"
      },
      "id": "ci2tjvr2200gxcwqm5motvfa0",
      "properties": {
        "description": "",
        "id": "marker-i2tjsieve",
        "marker-color": "",
        "marker-size": "",
        "marker-symbol": "monument",
        "name": "Houhora war memorial",
        "title": "Houhora war memorial"
      },
      "type": "Feature"
    },
    {
      "geometry": {
        "coordinates": [
          173.779604,
          -35.100063
        ],
        "type": "Point"
      },
      "id": "ci2tjvr2300gycwqm4sq6xlkp",
      "properties": {
        "description": "",
        "id": "marker-i2tjsievf",
        "marker-color": "",
        "marker-size": "",
        "marker-symbol": "monument",
        "name": "Kaeo war memorial",
        "title": "Kaeo war memorial"
      },
      "type": "Feature"
    },
    {
      "geometry": {
        "coordinates": [
          173.800972,
          -35.409939
        ],
        "type": "Point"
      },
      "id": "ci2tjvr2400gzcwqmn3x79316",
      "properties": {
        "description": "",
        "id": "marker-i2tjsievg",
        "marker-color": "",
        "marker-size": "",
        "marker-symbol": "monument",
        "name": "Kaikohe war memorial hall",
        "title": "Kaikohe war memorial hall"
      },
      "type": "Feature"
    },
    {
      "geometry": {
        "coordinates": [
          173.26524,
          -35.113733
        ],
        "type": "Point"
      },
      "id": "ci2tjvr2500h0cwqmp6q2n6ns",
      "properties": {
        "description": "",
        "id": "marker-i2tjsievh",
        "marker-color": "",
        "marker-size": "",
        "marker-symbol": "monument",
        "name": "Kaitaia First World War memorial",
        "title": "Kaitaia First World War memorial"
      },
      "type": "Feature"
    },
    {
      "geometry": {
        "coordinates": [
          173.268264,
          -35.117245
        ],
        "type": "Point"
      },
      "id": "ci2tjvr2600h1cwqm8vpm0o6h",
      "properties": {
        "description": "",
        "id": "marker-i2tjsievi",
        "marker-color": "",
        "marker-size": "",
        "marker-symbol": "monument",
        "name": "Kaitaia school roll of honour",
        "title": "Kaitaia school roll of honour"
      },
      "type": "Feature"
    },
    {
      "geometry": {
        "coordinates": [
          174.067328,
          -35.380424
        ],
        "type": "Point"
      },
      "id": "ci2tjvr2700h2cwqm0w35bs1y",
      "properties": {
        "description": "",
        "id": "marker-i2tjsievj",
        "marker-color": "",
        "marker-size": "",
        "marker-symbol": "monument",
        "name": "Kawakawa memorial library",
        "title": "Kawakawa memorial library"
      },
      "type": "Feature"
    },
    {
      "geometry": {
        "coordinates": [
          174.071448,
          -35.38031
        ],
        "type": "Point"
      },
      "id": "ci2tjvr2900h3cwqmd8iqw54p",
      "properties": {
        "description": "",
        "id": "marker-i2tjsievk",
        "marker-color": "",
        "marker-size": "",
        "marker-symbol": "monument",
        "name": "Kawakawa war memorial park",
        "title": "Kawakawa war memorial park"
      },
      "type": "Feature"
    },
    {
      "geometry": {
        "coordinates": [
          173.543922,
          -35.360294
        ],
        "type": "Point"
      },
      "id": "ci2tjvr2a00h4cwqm170ccbme",
      "properties": {
        "description": "",
        "id": "marker-i2tjsievl",
        "marker-color": "",
        "marker-size": "",
        "marker-symbol": "monument",
        "name": "Kohukohu school memorial",
        "title": "Kohukohu school memorial"
      },
      "type": "Feature"
    },
    {
      "geometry": {
        "coordinates": [
          173.546167,
          -35.358917
        ],
        "type": "Point"
      },
      "id": "ci2tjvr2b00h5cwqmh42yciuh",
      "properties": {
        "description": "",
        "id": "marker-i2tjsievm",
        "marker-color": "",
        "marker-size": "",
        "marker-symbol": "monument",
        "name": "Kohukohu war memorial gates",
        "title": "Kohukohu war memorial gates"
      },
      "type": "Feature"
    },
    {
      "geometry": {
        "coordinates": [
          174.809368,
          -36.290476
        ],
        "type": "Point"
      },
      "id": "ci2tjvr2c00h6cwqm5rmq6u14",
      "properties": {
        "description": "",
        "id": "marker-i2tjsievn",
        "marker-color": "",
        "marker-size": "",
        "marker-symbol": "monument",
        "name": "Leigh war memorial",
        "title": "Leigh war memorial"
      },
      "type": "Feature"
    },
    {
      "geometry": {
        "coordinates": [
          173.53688,
          -34.9904
        ],
        "type": "Point"
      },
      "id": "ci2tjvr2d00h7cwqm4imbc0ap",
      "properties": {
        "description": "",
        "id": "marker-i2tjsievo",
        "marker-color": "",
        "marker-size": "",
        "marker-symbol": "monument",
        "name": "Mangonui war memorial",
        "title": "Mangonui war memorial"
      },
      "type": "Feature"
    },
    {
      "geometry": {
        "coordinates": [
          173.53545,
          -34.98886
        ],
        "type": "Point"
      },
      "id": "ci2tjvr2e00h8cwqm3vi7pgrl",
      "properties": {
        "description": "",
        "id": "marker-i2tjsievp",
        "marker-color": "",
        "marker-size": "",
        "marker-symbol": "monument",
        "name": "Mangonui war memorial hall",
        "title": "Mangonui war memorial hall"
      },
      "type": "Feature"
    },
    {
      "geometry": {
        "coordinates": [
          174.184812,
          -36.129193
        ],
        "type": "Point"
      },
      "id": "ci2tjvr2f00h9cwqmjrprb9mr",
      "properties": {
        "description": "",
        "id": "marker-i2tjsievq",
        "marker-color": "",
        "marker-size": "",
        "marker-symbol": "monument",
        "name": "Matakohe First World War memorial",
        "title": "Matakohe First World War memorial"
      },
      "type": "Feature"
    },
    {
      "geometry": {
        "coordinates": [
          174.185415,
          -36.129954
        ],
        "type": "Point"
      },
      "id": "ci2tjvr2g00hacwqmkw4wocyb",
      "properties": {
        "description": "",
        "id": "marker-i2tjsievr",
        "marker-color": "",
        "marker-size": "",
        "marker-symbol": "monument",
        "name": "Matakohe memorial hall",
        "title": "Matakohe memorial hall"
      },
      "type": "Feature"
    },
    {
      "geometry": {
        "coordinates": [
          173.283611,
          -35.437094
        ],
        "type": "Point"
      },
      "id": "ci2tjvr2h00hbcwqm76g13ba9",
      "properties": {
        "description": "",
        "id": "marker-i2tjsievs",
        "marker-color": "",
        "marker-size": "",
        "marker-symbol": "monument",
        "name": "Matihetihe School memorial",
        "title": "Matihetihe School memorial"
      },
      "type": "Feature"
    },
    {
      "geometry": {
        "coordinates": [
          174.202137,
          -35.844754
        ],
        "type": "Point"
      },
      "id": "ci2tjvr2i00hccwqm0jbx3658",
      "properties": {
        "description": "",
        "id": "marker-i2tjsievt",
        "marker-color": "",
        "marker-size": "",
        "marker-symbol": "monument",
        "name": "Maungakaramea war memorial",
        "title": "Maungakaramea war memorial"
      },
      "type": "Feature"
    },
    {
      "geometry": {
        "coordinates": [
          174.206524,
          -35.757517
        ],
        "type": "Point"
      },
      "id": "ci2tjvr2j00hdcwqmgw67dhqg",
      "properties": {
        "description": "",
        "id": "marker-i2tjsievu",
        "marker-color": "",
        "marker-size": "",
        "marker-symbol": "monument",
        "name": "Maungatapere memorial church",
        "title": "Maungatapere memorial church"
      },
      "type": "Feature"
    },
    {
      "geometry": {
        "coordinates": [
          174.350861,
          -36.102512
        ],
        "type": "Point"
      },
      "id": "ci2tjvr2k00hecwqm04wuz2co",
      "properties": {
        "description": "",
        "id": "marker-i2tjsievv",
        "marker-color": "",
        "marker-size": "",
        "marker-symbol": "monument",
        "name": "Maungaturoto memorial",
        "title": "Maungaturoto memorial"
      },
      "type": "Feature"
    },
    {
      "geometry": {
        "coordinates": [
          173.273467,
          -35.425078
        ],
        "type": "Point"
      },
      "id": "ci2tjvr2m00hfcwqmxca8otwk",
      "properties": {
        "description": "",
        "id": "marker-i2tjsievw",
        "marker-color": "",
        "marker-size": "",
        "marker-symbol": "monument",
        "name": "Mitimiti war memorial",
        "title": "Mitimiti war memorial"
      },
      "type": "Feature"
    },
    {
      "geometry": {
        "coordinates": [
          173.487933,
          -35.381056
        ],
        "type": "Point"
      },
      "id": "ci2tjvr2n00hgcwqmlgx5m6wa",
      "properties": {
        "description": "",
        "id": "marker-i2tjsievx",
        "marker-color": "",
        "marker-size": "",
        "marker-symbol": "monument",
        "name": "Motukaraka Point war memorial",
        "title": "Motukaraka Point war memorial"
      },
      "type": "Feature"
    },
    {
      "geometry": {
        "coordinates": [
          173.768128,
          -35.322353
        ],
        "type": "Point"
      },
      "id": "ci2tjvr2o00hhcwqm3r92f5gk",
      "properties": {
        "description": "",
        "id": "marker-i2tjsievy",
        "marker-color": "",
        "marker-size": "",
        "marker-symbol": "monument",
        "name": "Okaihau cenotaph",
        "title": "Okaihau cenotaph"
      },
      "type": "Feature"
    },
    {
      "geometry": {
        "coordinates": [
          173.746681,
          -35.333835
        ],
        "type": "Point"
      },
      "id": "ci2tjvr2p00hicwqmt6mj8e2l",
      "properties": {
        "description": "",
        "id": "marker-i2tjsievz",
        "marker-color": "",
        "marker-size": "",
        "marker-symbol": "monument",
        "name": "Okaihau First World War memorial",
        "title": "Okaihau First World War memorial"
      },
      "type": "Feature"
    },
    {
      "geometry": {
        "coordinates": [
          174.090962,
          -35.282381
        ],
        "type": "Point"
      },
      "id": "ci2tjvr2q00hjcwqma8qq9yih",
      "properties": {
        "description": "",
        "id": "marker-i2tjsiev10",
        "marker-color": "",
        "marker-size": "",
        "marker-symbol": "monument",
        "name": "Paihia memorial hall",
        "title": "Paihia memorial hall"
      },
      "type": "Feature"
    },
    {
      "geometry": {
        "coordinates": [
          173.382703,
          -35.382284
        ],
        "type": "Point"
      },
      "id": "ci2tjvr2r00hkcwqmuyt0bovb",
      "properties": {
        "description": "",
        "id": "marker-i2tjsiev11",
        "marker-color": "",
        "marker-size": "",
        "marker-symbol": "monument",
        "name": "Panguru war memorial",
        "title": "Panguru war memorial"
      },
      "type": "Feature"
    },
    {
      "geometry": {
        "coordinates": [
          173.503734,
          -35.397073
        ],
        "type": "Point"
      },
      "id": "ci2tjvr2s00hlcwqmuktqnh4z",
      "properties": {
        "description": "",
        "id": "marker-i2tjsiev12",
        "marker-color": "",
        "marker-size": "",
        "marker-symbol": "monument",
        "name": "Rawene memorial church",
        "title": "Rawene memorial church"
      },
      "type": "Feature"
    },
    {
      "geometry": {
        "coordinates": [
          173.507033,
          -35.408841
        ],
        "type": "Point"
      },
      "id": "ci2tjvr2t00hmcwqmna9zlua0",
      "properties": {
        "description": "",
        "id": "marker-i2tjsiev13",
        "marker-color": "",
        "marker-size": "",
        "marker-symbol": "monument",
        "name": "Rawene memorial gates",
        "title": "Rawene memorial gates"
      },
      "type": "Feature"
    },
    {
      "geometry": {
        "coordinates": [
          174.260927,
          -35.233379
        ],
        "type": "Point"
      },
      "id": "ci2tjvr2u00hncwqmfrlagst4",
      "properties": {
        "description": "",
        "id": "marker-i2tjsiev14",
        "marker-color": "",
        "marker-size": "",
        "marker-symbol": "monument",
        "name": "Rawhiti war memorial",
        "title": "Rawhiti war memorial"
      },
      "type": "Feature"
    },
    {
      "geometry": {
        "coordinates": [
          174.121863,
          -35.262746
        ],
        "type": "Point"
      },
      "id": "ci2tjvr2v00hocwqm541jdkjb",
      "properties": {
        "description": "",
        "id": "marker-i2tjsiev15",
        "marker-color": "",
        "marker-size": "",
        "marker-symbol": "monument",
        "name": "Russell war memorial",
        "title": "Russell war memorial"
      },
      "type": "Feature"
    },
    {
      "geometry": {
        "coordinates": [
          173.466192,
          -34.996116
        ],
        "type": "Point"
      },
      "id": "ci2tjvr2w00hpcwqmpq82wgzx",
      "properties": {
        "description": "",
        "id": "marker-i2tjsiev16",
        "marker-color": "",
        "marker-size": "",
        "marker-symbol": "monument",
        "name": "Taipa Second World War memorial",
        "title": "Taipa Second World War memorial"
      },
      "type": "Feature"
    },
    {
      "geometry": {
        "coordinates": [
          174.207135,
          -35.463506
        ],
        "type": "Point"
      },
      "id": "ci2tjvr2x00hqcwqmhs6glkqx",
      "properties": {
        "description": "",
        "id": "marker-i2tjsiev17",
        "marker-color": "",
        "marker-size": "",
        "marker-symbol": "monument",
        "name": "Tapuhi war memorial",
        "title": "Tapuhi war memorial"
      },
      "type": "Feature"
    },
    {
      "geometry": {
        "coordinates": [
          172.97056,
          -34.65063
        ],
        "type": "Point"
      },
      "id": "ci2tjvr2y00hrcwqmq1gvdqjb",
      "properties": {
        "description": "",
        "id": "marker-i2tjsiev18",
        "marker-color": "",
        "marker-size": "",
        "marker-symbol": "monument",
        "name": "Te Kao war memorial",
        "title": "Te Kao war memorial"
      },
      "type": "Feature"
    },
    {
      "geometry": {
        "coordinates": [
          173.913866,
          -36.025638
        ],
        "type": "Point"
      },
      "id": "ci2tjvr2z00hscwqmldb77asy",
      "properties": {
        "description": "",
        "id": "marker-i2tjsiev19",
        "marker-color": "",
        "marker-size": "",
        "marker-symbol": "monument",
        "name": "Te Kopuru war memorial",
        "title": "Te Kopuru war memorial"
      },
      "type": "Feature"
    },
    {
      "geometry": {
        "coordinates": [
          173.583794,
          -35.486627
        ],
        "type": "Point"
      },
      "id": "ci2tjvr3100htcwqmbdwwzl5u",
      "properties": {
        "description": "",
        "id": "marker-i2tjsiev1a",
        "marker-color": "",
        "marker-size": "",
        "marker-symbol": "monument",
        "name": "Waimā Second World War memorial",
        "title": "Waimā Second World War memorial"
      },
      "type": "Feature"
    },
    {
      "geometry": {
        "coordinates": [
          173.436231,
          -35.558449
        ],
        "type": "Point"
      },
      "id": "ci2tjvr3200hucwqmnuu31sr0",
      "properties": {
        "description": "",
        "id": "marker-i2tjsiev1b",
        "marker-color": "",
        "marker-size": "",
        "marker-symbol": "monument",
        "name": "Waiotemarama war memorial ",
        "title": "Waiotemarama war memorial "
      },
      "type": "Feature"
    },
    {
      "geometry": {
        "coordinates": [
          174.444678,
          -35.984134
        ],
        "type": "Point"
      },
      "id": "ci2tjvr3300hvcwqmrwpo1rsa",
      "properties": {
        "description": "",
        "id": "marker-i2tjsiev1c",
        "marker-color": "",
        "marker-size": "",
        "marker-symbol": "monument",
        "name": "Waipu memorial",
        "title": "Waipu memorial"
      },
      "type": "Feature"
    },
    {
      "geometry": {
        "coordinates": [
          174.319563,
          -35.726986
        ],
        "type": "Point"
      },
      "id": "ci2tjvr3400hwcwqmg3m1bnzq",
      "properties": {
        "description": "",
        "id": "marker-i2tjsiev1d",
        "marker-color": "",
        "marker-size": "",
        "marker-symbol": "monument",
        "name": "Whāngārei First World War memorial",
        "title": "Whāngārei First World War memorial"
      },
      "type": "Feature"
    },
    {
      "geometry": {
        "coordinates": [
          174.269883,
          -35.743003
        ],
        "type": "Point"
      },
      "id": "ci2tjvr3500hxcwqmbr8ht63v",
      "properties": {
        "description": "",
        "id": "marker-i2tjsiev1e",
        "marker-color": "",
        "marker-size": "",
        "marker-symbol": "monument",
        "name": "Whangarei NZ Railways memorial plaque",
        "title": "Whangarei NZ Railways memorial plaque"
      },
      "type": "Feature"
    },
    {
      "geometry": {
        "coordinates": [
          174.33651,
          -35.71218
        ],
        "type": "Point"
      },
      "id": "ci2tjvr3600hycwqm9dc2lfvu",
      "properties": {
        "description": "",
        "id": "marker-i2tjsiev1f",
        "marker-color": "",
        "marker-size": "",
        "marker-symbol": "monument",
        "name": "Whāngārei WW2 memorial",
        "title": "Whāngārei WW2 memorial"
      },
      "type": "Feature"
    },
    {
      "geometry": {
        "coordinates": [
          174.426219,
          -36.080078
        ],
        "type": "Point"
      },
      "id": "ci2tjvr3700hzcwqmpvwfuge0",
      "properties": {
        "description": "",
        "id": "marker-i2tjsiev1g",
        "marker-color": "",
        "marker-size": "",
        "marker-symbol": "monument",
        "name": "Brynderwyn bus disaster memorial",
        "title": "Brynderwyn bus disaster memorial"
      },
      "type": "Feature"
    },
    {
      "geometry": {
        "coordinates": [
          174.950352,
          -37.102973
        ],
        "type": "Point"
      },
      "id": "ci2tjvr3800i0cwqmv2kslkw4",
      "properties": {
        "description": "",
        "id": "marker-i2tjsiev1h",
        "marker-color": "",
        "marker-size": "",
        "marker-symbol": "monument",
        "name": "1st Waikato Regiment NZ Wars memorial",
        "title": "1st Waikato Regiment NZ Wars memorial"
      },
      "type": "Feature"
    },
    {
      "geometry": {
        "coordinates": [
          174.950349,
          -37.102973
        ],
        "type": "Point"
      },
      "id": "ci2tjvr3900i1cwqm9kso8gsm",
      "properties": {
        "description": "",
        "id": "marker-i2tjsiev1i",
        "marker-color": "",
        "marker-size": "",
        "marker-symbol": "monument",
        "name": "Drury NZ Wars soldiers memorial",
        "title": "Drury NZ Wars soldiers memorial"
      },
      "type": "Feature"
    },
    {
      "geometry": {
        "coordinates": [
          174.844815,
          -36.937342
        ],
        "type": "Point"
      },
      "id": "ci2tjvr3a00i2cwqmgydao1zf",
      "properties": {
        "description": "",
        "id": "marker-i2tjsiev1j",
        "marker-color": "",
        "marker-size": "",
        "marker-symbol": "monument",
        "name": "Holy Trinity Memorial Park NZ Wars memorial",
        "title": "Holy Trinity Memorial Park NZ Wars memorial"
      },
      "type": "Feature"
    },
    {
      "geometry": {
        "coordinates": [
          174.933772,
          -36.895413
        ],
        "type": "Point"
      },
      "id": "ci2tjvr3b00i3cwqm49tiqljs",
      "properties": {
        "description": "",
        "id": "marker-i2tjsiev1k",
        "marker-color": "",
        "marker-size": "",
        "marker-symbol": "monument",
        "name": "Howick NZ Wars memorial",
        "title": "Howick NZ Wars memorial"
      },
      "type": "Feature"
    },
    {
      "geometry": {
        "coordinates": [
          174.794813,
          -37.174546
        ],
        "type": "Point"
      },
      "id": "ci2tjvr3c00i4cwqmwl814g01",
      "properties": {
        "description": "",
        "id": "marker-i2tjsiev1l",
        "marker-color": "",
        "marker-size": "",
        "marker-symbol": "monument",
        "name": "Mauku NZ Wars memorial",
        "title": "Mauku NZ Wars memorial"
      },
      "type": "Feature"
    },
    {
      "geometry": {
        "coordinates": [
          174.84495,
          -36.94998
        ],
        "type": "Point"
      },
      "id": "ci2tjvr3d00i5cwqmym4fbnsb",
      "properties": {
        "description": "",
        "id": "marker-i2tjsiev1m",
        "marker-color": "",
        "marker-size": "",
        "marker-symbol": "monument",
        "name": "Nixon NZ Wars memorial",
        "title": "Nixon NZ Wars memorial"
      },
      "type": "Feature"
    },
    {
      "geometry": {
        "coordinates": [
          174.94588,
          -37.18866
        ],
        "type": "Point"
      },
      "id": "ci2tjvr3e00i6cwqm4gu1xf09",
      "properties": {
        "description": "",
        "id": "marker-i2tjsiev1n",
        "marker-color": "",
        "marker-size": "",
        "marker-symbol": "monument",
        "name": "Pukekohe East NZ Wars memorial",
        "title": "Pukekohe East NZ Wars memorial"
      },
      "type": "Feature"
    },
    {
      "geometry": {
        "coordinates": [
          174.766043,
          -36.855698
        ],
        "type": "Point"
      },
      "id": "ci2tjvr3g00i7cwqmrlw9ph8j",
      "properties": {
        "description": "",
        "id": "marker-i2tjsiev1o",
        "marker-color": "",
        "marker-size": "",
        "marker-symbol": "monument",
        "name": "Symonds Street NZ Wars memorial",
        "title": "Symonds Street NZ Wars memorial"
      },
      "type": "Feature"
    },
    {
      "geometry": {
        "coordinates": [
          174.804271,
          -37.217952
        ],
        "type": "Point"
      },
      "id": "ci2tjvr3h00i8cwqma9rcrnvb",
      "properties": {
        "description": "",
        "id": "marker-i2tjsiev1p",
        "marker-color": "",
        "marker-size": "",
        "marker-symbol": "monument",
        "name": "Tītī Hill NZ Wars memorial",
        "title": "Tītī Hill NZ Wars memorial"
      },
      "type": "Feature"
    },
    {
      "geometry": {
        "coordinates": [
          174.798844,
          -36.929449
        ],
        "type": "Point"
      },
      "id": "ci2tjvr3i00i9cwqmkoeni62t",
      "properties": {
        "description": "",
        "id": "marker-i2tjsiev1q",
        "marker-color": "",
        "marker-size": "",
        "marker-symbol": "monument",
        "name": "Waikaraka Cemetery veterans' memorial",
        "title": "Waikaraka Cemetery veterans' memorial"
      },
      "type": "Feature"
    },
    {
      "geometry": {
        "coordinates": [
          174.767827,
          -36.8499
        ],
        "type": "Point"
      },
      "id": "ci2tjvr3j00iacwqmpop0tefz",
      "properties": {
        "description": "",
        "id": "marker-i2tjsiev1r",
        "marker-color": "",
        "marker-size": "",
        "marker-symbol": "monument",
        "name": "Albert Park South African War memorial",
        "title": "Albert Park South African War memorial"
      },
      "type": "Feature"
    },
    {
      "geometry": {
        "coordinates": [
          174.991208,
          -37.187046
        ],
        "type": "Point"
      },
      "id": "ci2tjvr3k00ibcwqmq8n58j69",
      "properties": {
        "description": "",
        "id": "marker-i2tjsiev1s",
        "marker-color": "",
        "marker-size": "",
        "marker-symbol": "monument",
        "name": "Bombay South African War memorial",
        "title": "Bombay South African War memorial"
      },
      "type": "Feature"
    },
    {
      "geometry": {
        "coordinates": [
          174.797576,
          -36.830944
        ],
        "type": "Point"
      },
      "id": "ci2tjvr3l00iccwqm74zhjn33",
      "properties": {
        "description": "",
        "id": "marker-i2tjsiev1t",
        "marker-color": "",
        "marker-size": "",
        "marker-symbol": "monument",
        "name": "Devonport South African War memorial",
        "title": "Devonport South African War memorial"
      },
      "type": "Feature"
    },
    {
      "geometry": {
        "coordinates": [
          174.798843,
          -36.831611
        ],
        "type": "Point"
      },
      "id": "ci2tjvr3n00idcwqmmftv1rcl",
      "properties": {
        "description": "",
        "id": "marker-i2tjsiev1u",
        "marker-color": "",
        "marker-size": "",
        "marker-symbol": "monument",
        "name": "Devonport South African War peace memorial",
        "title": "Devonport South African War peace memorial"
      },
      "type": "Feature"
    },
    {
      "geometry": {
        "coordinates": [
          174.694398,
          -36.726783
        ],
        "type": "Point"
      },
      "id": "ci2tjvr3o00iecwqmjs9k2qcc",
      "properties": {
        "description": "",
        "id": "marker-i2tjsiev1v",
        "marker-color": "",
        "marker-size": "",
        "marker-symbol": "monument",
        "name": "Albany High School war memorial and guardian",
        "title": "Albany High School war memorial and guardian"
      },
      "type": "Feature"
    },
    {
      "geometry": {
        "coordinates": [
          174.696862,
          -36.726375
        ],
        "type": "Point"
      },
      "id": "ci2tjvr3p00ifcwqmwohmx4t0",
      "properties": {
        "description": "",
        "id": "marker-i2tjsiev1w",
        "marker-color": "",
        "marker-size": "",
        "marker-symbol": "monument",
        "name": "Albany war memorial library",
        "title": "Albany war memorial library"
      },
      "type": "Feature"
    },
    {
      "geometry": {
        "coordinates": [
          174.940843,
          -37.016733
        ],
        "type": "Point"
      },
      "id": "ci2tjvr3q00igcwqm6jw1uwjz",
      "properties": {
        "description": "",
        "id": "marker-i2tjsiev1x",
        "marker-color": "",
        "marker-size": "",
        "marker-symbol": "monument",
        "name": "Alfriston School roll of honour",
        "title": "Alfriston School roll of honour"
      },
      "type": "Feature"
    },
    {
      "geometry": {
        "coordinates": [
          174.940087,
          -37.017329
        ],
        "type": "Point"
      },
      "id": "ci2tjvr3r00ihcwqm3e50p4fk",
      "properties": {
        "description": "",
        "id": "marker-i2tjsiev1y",
        "marker-color": "",
        "marker-size": "",
        "marker-symbol": "monument",
        "name": "Alfriston-Brookby First World War memorial",
        "title": "Alfriston-Brookby First World War memorial"
      },
      "type": "Feature"
    },
    {
      "geometry": {
        "coordinates": [
          175.04205,
          -36.986308
        ],
        "type": "Point"
      },
      "id": "ci2tjvr3s00iicwqmmn6e0tpx",
      "properties": {
        "description": "",
        "id": "marker-i2tjsiev1z",
        "marker-color": "",
        "marker-size": "",
        "marker-symbol": "monument",
        "name": "All Souls Church, Clevedon",
        "title": "All Souls Church, Clevedon"
      },
      "type": "Feature"
    },
    {
      "geometry": {
        "coordinates": [
          174.771618,
          -36.846094
        ],
        "type": "Point"
      },
      "id": "ci2tjvr3t00ijcwqm79voucz5",
      "properties": {
        "description": "",
        "id": "marker-i2tjsiev20",
        "marker-color": "",
        "marker-size": "",
        "marker-symbol": "monument",
        "name": "Anzac Avenue, Auckland",
        "title": "Anzac Avenue, Auckland"
      },
      "type": "Feature"
    },
    {
      "geometry": {
        "coordinates": [
          175.002025,
          -37.031832
        ],
        "type": "Point"
      },
      "id": "ci2tjvr3v00ikcwqmzsxfhbnz",
      "properties": {
        "description": "",
        "id": "marker-i2tjsiev21",
        "marker-color": "",
        "marker-size": "",
        "marker-symbol": "monument",
        "name": "Ardmore First World War memorial",
        "title": "Ardmore First World War memorial"
      },
      "type": "Feature"
    },
    {
      "geometry": {
        "coordinates": [
          174.77795,
          -36.859916
        ],
        "type": "Point"
      },
      "id": "ci2tjvr3w00ilcwqmlj35xc3p",
      "properties": {
        "description": "",
        "id": "marker-i2tjsiev22",
        "marker-color": "",
        "marker-size": "",
        "marker-symbol": "monument",
        "name": "Auckland cenotaph",
        "title": "Auckland cenotaph"
      },
      "type": "Feature"
    },
    {
      "geometry": {
        "coordinates": [
          174.83932,
          -36.95913
        ],
        "type": "Point"
      },
      "id": "ci2tjvr3x00imcwqm5887zkx8",
      "properties": {
        "description": "",
        "id": "marker-i2tjsiev23",
        "marker-color": "",
        "marker-size": "",
        "marker-symbol": "monument",
        "name": "Auckland Golf Club memorials",
        "title": "Auckland Golf Club memorials"
      },
      "type": "Feature"
    },
    {
      "geometry": {
        "coordinates": [
          174.769372,
          -36.868778
        ],
        "type": "Point"
      },
      "id": "ci2tjvr3y00incwqmn3nad3xy",
      "properties": {
        "description": "",
        "id": "marker-i2tjsiev24",
        "marker-color": "",
        "marker-size": "",
        "marker-symbol": "monument",
        "name": "Auckland Grammar School memorial",
        "title": "Auckland Grammar School memorial"
      },
      "type": "Feature"
    },
    {
      "geometry": {
        "coordinates": [
          174.764041,
          -36.842338
        ],
        "type": "Point"
      },
      "id": "ci2tjvr4000iocwqmx5cd521w",
      "properties": {
        "description": "",
        "id": "marker-i2tjsiev25",
        "marker-color": "",
        "marker-size": "",
        "marker-symbol": "monument",
        "name": "Auckland Harbour Board war memorial",
        "title": "Auckland Harbour Board war memorial"
      },
      "type": "Feature"
    },
    {
      "geometry": {
        "coordinates": [
          174.76538,
          -36.8835
        ],
        "type": "Point"
      },
      "id": "ci2tjvr4100ipcwqmcbqnhble",
      "properties": {
        "description": "",
        "id": "marker-i2tjsiev26",
        "marker-color": "",
        "marker-size": "",
        "marker-symbol": "monument",
        "name": "Auckland Normal Intermediate memorial",
        "title": "Auckland Normal Intermediate memorial"
      },
      "type": "Feature"
    },
    {
      "geometry": {
        "coordinates": [
          174.777795,
          -36.860225
        ],
        "type": "Point"
      },
      "id": "ci2tjvr4200iqcwqm5tcnjyhj",
      "properties": {
        "description": "",
        "id": "marker-i2tjsiev27",
        "marker-color": "",
        "marker-size": "",
        "marker-symbol": "monument",
        "name": "Auckland War Memorial Museum",
        "title": "Auckland War Memorial Museum"
      },
      "type": "Feature"
    },
    {
      "geometry": {
        "coordinates": [
          174.698737,
          -36.895067
        ],
        "type": "Point"
      },
      "id": "ci2tjvr4300ircwqmspf1hftw",
      "properties": {
        "description": "",
        "id": "marker-i2tjsiev28",
        "marker-color": "",
        "marker-size": "",
        "marker-symbol": "monument",
        "name": "Avondale RSA memorial",
        "title": "Avondale RSA memorial"
      },
      "type": "Feature"
    },
    {
      "geometry": {
        "coordinates": [
          174.696754,
          -36.898893
        ],
        "type": "Point"
      },
      "id": "ci2tjvr4500iscwqmyfwu0h7k",
      "properties": {
        "description": "",
        "id": "marker-i2tjsiev29",
        "marker-color": "",
        "marker-size": "",
        "marker-symbol": "monument",
        "name": "Avondale war memorial park",
        "title": "Avondale war memorial park"
      },
      "type": "Feature"
    },
    {
      "geometry": {
        "coordinates": [
          174.581086,
          -37.095558
        ],
        "type": "Point"
      },
      "id": "ci2tjvr4600itcwqmaaia64g8",
      "properties": {
        "description": "",
        "id": "marker-i2tjsiev2a",
        "marker-color": "",
        "marker-size": "",
        "marker-symbol": "monument",
        "name": "Awhitu First World War memorial",
        "title": "Awhitu First World War memorial"
      },
      "type": "Feature"
    },
    {
      "geometry": {
        "coordinates": [
          174.726503,
          -36.812625
        ],
        "type": "Point"
      },
      "id": "ci2tjvr4700iucwqm812p238n",
      "properties": {
        "description": "",
        "id": "marker-i2tjsiev2b",
        "marker-color": "",
        "marker-size": "",
        "marker-symbol": "monument",
        "name": "Birkenhead war memorial",
        "title": "Birkenhead war memorial"
      },
      "type": "Feature"
    },
    {
      "geometry": {
        "coordinates": [
          174.701937,
          -36.924871
        ],
        "type": "Point"
      },
      "id": "ci2tjvr4800ivcwqm5f1nhxni",
      "properties": {
        "description": "",
        "id": "marker-i2tjsiev2c",
        "marker-color": "",
        "marker-size": "",
        "marker-symbol": "monument",
        "name": "Blockhouse Bay school memorial",
        "title": "Blockhouse Bay school memorial"
      },
      "type": "Feature"
    },
    {
      "geometry": {
        "coordinates": [
          174.995503,
          -37.185889
        ],
        "type": "Point"
      },
      "id": "ci2tjvr4900iwcwqm413z16uo",
      "properties": {
        "description": "",
        "id": "marker-i2tjsiev2d",
        "marker-color": "",
        "marker-size": "",
        "marker-symbol": "monument",
        "name": "Bombay war memorials ",
        "title": "Bombay war memorials "
      },
      "type": "Feature"
    },
    {
      "geometry": {
        "coordinates": [
          174.90368,
          -36.86845
        ],
        "type": "Point"
      },
      "id": "ci2tjvr4b00ixcwqmr5yz62c9",
      "properties": {
        "description": "",
        "id": "marker-i2tjsiev2e",
        "marker-color": "",
        "marker-size": "",
        "marker-symbol": "monument",
        "name": "Bucklands Beach memorial hall",
        "title": "Bucklands Beach memorial hall"
      },
      "type": "Feature"
    },
    {
      "geometry": {
        "coordinates": [
          174.948096,
          -37.013055
        ],
        "type": "Point"
      },
      "id": "ci2tjvr4c00iycwqmnq1kjzby",
      "properties": {
        "description": "",
        "id": "marker-i2tjsiev2f",
        "marker-color": "",
        "marker-size": "",
        "marker-symbol": "monument",
        "name": "Christ Church, Alfriston",
        "title": "Christ Church, Alfriston"
      },
      "type": "Feature"
    },
    {
      "geometry": {
        "coordinates": [
          174.940706,
          -37.060811
        ],
        "type": "Point"
      },
      "id": "ci2tjvr4d00izcwqmmeuu8zmg",
      "properties": {
        "description": "",
        "id": "marker-i2tjsiev2g",
        "marker-color": "",
        "marker-size": "",
        "marker-symbol": "monument",
        "name": "Christ Church, Papakura",
        "title": "Christ Church, Papakura"
      },
      "type": "Feature"
    },
    {
      "geometry": {
        "coordinates": [
          175.040989,
          -37.001998
        ],
        "type": "Point"
      },
      "id": "ci2tjvr4e00j0cwqmuhvtd5ch",
      "properties": {
        "description": "",
        "id": "marker-i2tjsiev2h",
        "marker-color": "",
        "marker-size": "",
        "marker-symbol": "monument",
        "name": "Clevedon Avenue of Remembrance",
        "title": "Clevedon Avenue of Remembrance"
      },
      "type": "Feature"
    },
    {
      "geometry": {
        "coordinates": [
          175.036457,
          -36.995247
        ],
        "type": "Point"
      },
      "id": "ci2tjvr4f00j1cwqm7t3ttdrq",
      "properties": {
        "description": "",
        "id": "marker-i2tjsiev2i",
        "marker-color": "",
        "marker-size": "",
        "marker-symbol": "monument",
        "name": "Clevedon First World War memorial",
        "title": "Clevedon First World War memorial"
      },
      "type": "Feature"
    },
    {
      "geometry": {
        "coordinates": [
          175.037245,
          -36.991505
        ],
        "type": "Point"
      },
      "id": "ci2tjvr4h00j2cwqmcde5y8wv",
      "properties": {
        "description": "",
        "id": "marker-i2tjsiev2j",
        "marker-color": "",
        "marker-size": "",
        "marker-symbol": "monument",
        "name": "Clevedon Hall rolls of honour",
        "title": "Clevedon Hall rolls of honour"
      },
      "type": "Feature"
    },
    {
      "geometry": {
        "coordinates": [
          175.045777,
          -36.98941
        ],
        "type": "Point"
      },
      "id": "ci2tjvr4i00j3cwqmer4dousy",
      "properties": {
        "description": "",
        "id": "marker-i2tjsiev2k",
        "marker-color": "",
        "marker-size": "",
        "marker-symbol": "monument",
        "name": "Clevedon Historical Society museum memorials",
        "title": "Clevedon Historical Society museum memorials"
      },
      "type": "Feature"
    },
    {
      "geometry": {
        "coordinates": [
          175.038286,
          -36.990164
        ],
        "type": "Point"
      },
      "id": "ci2tjvr4j00j4cwqm2hniymbg",
      "properties": {
        "description": "",
        "id": "marker-i2tjsiev2l",
        "marker-color": "",
        "marker-size": "",
        "marker-symbol": "monument",
        "name": "Clevedon School war memorial plaque",
        "title": "Clevedon School war memorial plaque"
      },
      "type": "Feature"
    },
    {
      "geometry": {
        "coordinates": [
          174.797325,
          -36.831543
        ],
        "type": "Point"
      },
      "id": "ci2tjvr4l00j5cwqmqy3aculv",
      "properties": {
        "description": "",
        "id": "marker-i2tjsiev2m",
        "marker-color": "",
        "marker-size": "",
        "marker-symbol": "monument",
        "name": "Devonport First World War memorial ",
        "title": "Devonport First World War memorial "
      },
      "type": "Feature"
    },
    {
      "geometry": {
        "coordinates": [
          174.799485,
          -36.828297
        ],
        "type": "Point"
      },
      "id": "ci2tjvr4m00j6cwqmkubboser",
      "properties": {
        "description": "",
        "id": "marker-i2tjsiev2n",
        "marker-color": "",
        "marker-size": "",
        "marker-symbol": "monument",
        "name": "Devonport School First World War memorial",
        "title": "Devonport School First World War memorial"
      },
      "type": "Feature"
    },
    {
      "geometry": {
        "coordinates": [
          174.952983,
          -37.10252
        ],
        "type": "Point"
      },
      "id": "ci2tjvr4n00j7cwqm63q0n9hm",
      "properties": {
        "description": "",
        "id": "marker-i2tjsiev2o",
        "marker-color": "",
        "marker-size": "",
        "marker-symbol": "monument",
        "name": "Drury-Runciman First World War memorial",
        "title": "Drury-Runciman First World War memorial"
      },
      "type": "Feature"
    },
    {
      "geometry": {
        "coordinates": [
          174.888305,
          -36.960403
        ],
        "type": "Point"
      },
      "id": "ci2tjvr4o00j8cwqmrf0rtxsl",
      "properties": {
        "description": "",
        "id": "marker-i2tjsiev2p",
        "marker-color": "",
        "marker-size": "",
        "marker-symbol": "monument",
        "name": "East Tamaki First World War memorial",
        "title": "East Tamaki First World War memorial"
      },
      "type": "Feature"
    },
    {
      "geometry": {
        "coordinates": [
          174.889165,
          -36.959531
        ],
        "type": "Point"
      },
      "id": "ci2tjvr4p00j9cwqmsyvfmozb",
      "properties": {
        "description": "",
        "id": "marker-i2tjsiev2q",
        "marker-color": "",
        "marker-size": "",
        "marker-symbol": "monument",
        "name": "East Tamaki War Memorial park",
        "title": "East Tamaki War Memorial park"
      },
      "type": "Feature"
    },
    {
      "geometry": {
        "coordinates": [
          174.737425,
          -36.887473
        ],
        "type": "Point"
      },
      "id": "ci2tjvr4r00jacwqmctayu9k3",
      "properties": {
        "description": "",
        "id": "marker-i2tjsiev2r",
        "marker-color": "",
        "marker-size": "",
        "marker-symbol": "monument",
        "name": "Edendale School First World War memorial",
        "title": "Edendale School First World War memorial"
      },
      "type": "Feature"
    },
    {
      "geometry": {
        "coordinates": [
          174.775467,
          -36.885258
        ],
        "type": "Point"
      },
      "id": "ci2tjvr4s00jbcwqmism7utgh",
      "properties": {
        "description": "",
        "id": "marker-i2tjsiev2s",
        "marker-color": "",
        "marker-size": "",
        "marker-symbol": "monument",
        "name": "Epsom war memorial",
        "title": "Epsom war memorial"
      },
      "type": "Feature"
    },
    {
      "geometry": {
        "coordinates": [
          174.81217,
          -36.828899
        ],
        "type": "Point"
      },
      "id": "ci2tjvr4t00jccwqmmf5o053e",
      "properties": {
        "description": "",
        "id": "marker-i2tjsiev2t",
        "marker-color": "",
        "marker-size": "",
        "marker-symbol": "monument",
        "name": "Fort Cautley Memorial Battery",
        "title": "Fort Cautley Memorial Battery"
      },
      "type": "Feature"
    },
    {
      "geometry": {
        "coordinates": [
          174.738141,
          -37.246526
        ],
        "type": "Point"
      },
      "id": "ci2tjvr4u00jdcwqmtxhq3w4g",
      "properties": {
        "description": "",
        "id": "marker-i2tjsiev2u",
        "marker-color": "",
        "marker-size": "",
        "marker-symbol": "monument",
        "name": "Franklin Memorial Hospital, Waiuku",
        "title": "Franklin Memorial Hospital, Waiuku"
      },
      "type": "Feature"
    },
    {
      "geometry": {
        "coordinates": [
          174.651943,
          -36.907766
        ],
        "type": "Point"
      },
      "id": "ci2tjvr4v00jecwqmk517a5ws",
      "properties": {
        "description": "",
        "id": "marker-i2tjsiev2v",
        "marker-color": "",
        "marker-size": "",
        "marker-symbol": "monument",
        "name": "Glen Eden primary school memorial",
        "title": "Glen Eden primary school memorial"
      },
      "type": "Feature"
    },
    {
      "geometry": {
        "coordinates": [
          174.76017,
          -37.19285
        ],
        "type": "Point"
      },
      "id": "ci2tjvr4x00jfcwqmxrv9mmbf",
      "properties": {
        "description": "",
        "id": "marker-i2tjsiev2w",
        "marker-color": "",
        "marker-size": "",
        "marker-symbol": "monument",
        "name": "Glenbrook memorial hall",
        "title": "Glenbrook memorial hall"
      },
      "type": "Feature"
    },
    {
      "geometry": {
        "coordinates": [
          174.722229,
          -36.775637
        ],
        "type": "Point"
      },
      "id": "ci2tjvr4y00jgcwqm1z6rr7up",
      "properties": {
        "description": "",
        "id": "marker-i2tjsiev2x",
        "marker-color": "",
        "marker-size": "",
        "marker-symbol": "monument",
        "name": "Glenfield war memorial",
        "title": "Glenfield war memorial"
      },
      "type": "Feature"
    },
    {
      "geometry": {
        "coordinates": [
          174.44859,
          -36.474197
        ],
        "type": "Point"
      },
      "id": "ci2tjvr4z00jhcwqmhz1rl7rc",
      "properties": {
        "description": "",
        "id": "marker-i2tjsiev2y",
        "marker-color": "",
        "marker-size": "",
        "marker-symbol": "monument",
        "name": "Glorit war memorial hall",
        "title": "Glorit war memorial hall"
      },
      "type": "Feature"
    },
    {
      "geometry": {
        "coordinates": [
          174.777822,
          -36.860384
        ],
        "type": "Point"
      },
      "id": "ci2tjvr5000jicwqm3fgxtdn2",
      "properties": {
        "description": "",
        "id": "marker-i2tjsiev2z",
        "marker-color": "",
        "marker-size": "",
        "marker-symbol": "monument",
        "name": "Grafton school roll of honour",
        "title": "Grafton school roll of honour"
      },
      "type": "Feature"
    },
    {
      "geometry": {
        "coordinates": [
          174.671576,
          -36.772444
        ],
        "type": "Point"
      },
      "id": "ci2tjvr5200jjcwqmpfn8x8pq",
      "properties": {
        "description": "",
        "id": "marker-i2tjsiev30",
        "marker-color": "",
        "marker-size": "",
        "marker-symbol": "monument",
        "name": "Greenhithe war memorial park",
        "title": "Greenhithe war memorial park"
      },
      "type": "Feature"
    },
    {
      "geometry": {
        "coordinates": [
          174.761546,
          -36.885808
        ],
        "type": "Point"
      },
      "id": "ci2tjvr5300jkcwqm1y9e2yiw",
      "properties": {
        "description": "",
        "id": "marker-i2tjsiev31",
        "marker-color": "",
        "marker-size": "",
        "marker-symbol": "monument",
        "name": "Greyfriars Church memorial hall",
        "title": "Greyfriars Church memorial hall"
      },
      "type": "Feature"
    },
    {
      "geometry": {
        "coordinates": [
          174.45584,
          -36.683943
        ],
        "type": "Point"
      },
      "id": "ci2tjvr5400jlcwqmur2c1hk7",
      "properties": {
        "description": "",
        "id": "marker-i2tjsiev32",
        "marker-color": "",
        "marker-size": "",
        "marker-symbol": "monument",
        "name": "Helensville cemetery war memorial",
        "title": "Helensville cemetery war memorial"
      },
      "type": "Feature"
    },
    {
      "geometry": {
        "coordinates": [
          174.433755,
          -36.659078
        ],
        "type": "Point"
      },
      "id": "ci2tjvr5500jmcwqmdxkd5hv7",
      "properties": {
        "description": "",
        "id": "marker-i2tjsiev33",
        "marker-color": "",
        "marker-size": "",
        "marker-symbol": "monument",
        "name": "Helensville war memorial",
        "title": "Helensville war memorial"
      },
      "type": "Feature"
    },
    {
      "geometry": {
        "coordinates": [
          174.451037,
          -36.676554
        ],
        "type": "Point"
      },
      "id": "ci2tjvr5600jncwqmblq8bhk2",
      "properties": {
        "description": "",
        "id": "marker-i2tjsiev34",
        "marker-color": "",
        "marker-size": "",
        "marker-symbol": "monument",
        "name": "Helensville war memorial hall",
        "title": "Helensville war memorial hall"
      },
      "type": "Feature"
    },
    {
      "geometry": {
        "coordinates": [
          174.864151,
          -36.844053
        ],
        "type": "Point"
      },
      "id": "ci2tjvr5800jocwqmj8t3mi14",
      "properties": {
        "description": "",
        "id": "marker-i2tjsiev35",
        "marker-color": "",
        "marker-size": "",
        "marker-symbol": "monument",
        "name": "HMS Achilles memorial, St Heliers",
        "title": "HMS Achilles memorial, St Heliers"
      },
      "type": "Feature"
    },
    {
      "geometry": {
        "coordinates": [
          174.9278,
          -36.8922
        ],
        "type": "Point"
      },
      "id": "ci2tjvr5900jpcwqm2c5ti033",
      "properties": {
        "description": "",
        "id": "marker-i2tjsiev36",
        "marker-color": "",
        "marker-size": "",
        "marker-symbol": "monument",
        "name": "Howick war memorial",
        "title": "Howick war memorial"
      },
      "type": "Feature"
    },
    {
      "geometry": {
        "coordinates": [
          174.932203,
          -36.894794
        ],
        "type": "Point"
      },
      "id": "ci2tjvr5a00jqcwqmx9xznmo9",
      "properties": {
        "description": "",
        "id": "marker-i2tjsiev37",
        "marker-color": "",
        "marker-size": "",
        "marker-symbol": "monument",
        "name": "Howick War Memorial Community Centre",
        "title": "Howick War Memorial Community Centre"
      },
      "type": "Feature"
    },
    {
      "geometry": {
        "coordinates": [
          174.928741,
          -36.892362
        ],
        "type": "Point"
      },
      "id": "ci2tjvr5b00jrcwqm0mcaa0ec",
      "properties": {
        "description": "",
        "id": "marker-i2tjsiev38",
        "marker-color": "",
        "marker-size": "",
        "marker-symbol": "monument",
        "name": "Judson memorial oak, Howick",
        "title": "Judson memorial oak, Howick"
      },
      "type": "Feature"
    },
    {
      "geometry": {
        "coordinates": [
          174.590023,
          -37.007048
        ],
        "type": "Point"
      },
      "id": "ci2tjvr5c00jscwqm1gq6f6vp",
      "properties": {
        "description": "",
        "id": "marker-i2tjsiev39",
        "marker-color": "",
        "marker-size": "",
        "marker-symbol": "monument",
        "name": "Kaitarakihi First World War memorial",
        "title": "Kaitarakihi First World War memorial"
      },
      "type": "Feature"
    },
    {
      "geometry": {
        "coordinates": [
          174.877986,
          -37.100453
        ],
        "type": "Point"
      },
      "id": "ci2tjvr5e00jtcwqml7vdjclb",
      "properties": {
        "description": "",
        "id": "marker-i2tjsiev3a",
        "marker-color": "",
        "marker-size": "",
        "marker-symbol": "monument",
        "name": "Karaka war memorial hall",
        "title": "Karaka war memorial hall"
      },
      "type": "Feature"
    },
    {
      "geometry": {
        "coordinates": [
          174.833101,
          -37.113027
        ],
        "type": "Point"
      },
      "id": "ci2tjvr5f00jucwqmtdz5n0sw",
      "properties": {
        "description": "",
        "id": "marker-i2tjsiew3b",
        "marker-color": "",
        "marker-size": "",
        "marker-symbol": "monument",
        "name": "Karaka-Te Hihi peace trees",
        "title": "Karaka-Te Hihi peace trees"
      },
      "type": "Feature"
    },
    {
      "geometry": {
        "coordinates": [
          174.494322,
          -36.617731
        ],
        "type": "Point"
      },
      "id": "ci2tjvr5g00jvcwqm3gaejgp5",
      "properties": {
        "description": "",
        "id": "marker-i2tjsiew3c",
        "marker-color": "",
        "marker-size": "",
        "marker-symbol": "monument",
        "name": "Kaukapakapa school",
        "title": "Kaukapakapa school"
      },
      "type": "Feature"
    },
    {
      "geometry": {
        "coordinates": [
          174.838435,
          -36.958314
        ],
        "type": "Point"
      },
      "id": "ci2tjvr5h00jwcwqmgqlhldm3",
      "properties": {
        "description": "",
        "id": "marker-i2tjsiew3d",
        "marker-color": "",
        "marker-size": "",
        "marker-symbol": "monument",
        "name": "King's College memorial chapel",
        "title": "King's College memorial chapel"
      },
      "type": "Feature"
    },
    {
      "geometry": {
        "coordinates": [
          174.467304,
          -36.953745
        ],
        "type": "Point"
      },
      "id": "ci2tjvr5i00jxcwqmepbx7u9e",
      "properties": {
        "description": "",
        "id": "marker-i2tjsiew3e",
        "marker-color": "",
        "marker-size": "",
        "marker-symbol": "monument",
        "name": "Lion Rock memorial, Piha",
        "title": "Lion Rock memorial, Piha"
      },
      "type": "Feature"
    },
    {
      "geometry": {
        "coordinates": [
          175.1991,
          -37.20026
        ],
        "type": "Point"
      },
      "id": "ci2tjvr5k00jycwqmxhnwliph",
      "properties": {
        "description": "",
        "id": "marker-i2tjsiew3f",
        "marker-color": "",
        "marker-size": "",
        "marker-symbol": "monument",
        "name": "Mangatangi-Miranda roll of honour",
        "title": "Mangatangi-Miranda roll of honour"
      },
      "type": "Feature"
    },
    {
      "geometry": {
        "coordinates": [
          174.786171,
          -36.946271
        ],
        "type": "Point"
      },
      "id": "ci2tjvr5l00jzcwqmh37lkhj1",
      "properties": {
        "description": "",
        "id": "marker-i2tjsiew3g",
        "marker-color": "",
        "marker-size": "",
        "marker-symbol": "monument",
        "name": "Mangere memorial hall",
        "title": "Mangere memorial hall"
      },
      "type": "Feature"
    },
    {
      "geometry": {
        "coordinates": [
          174.841542,
          -36.993476
        ],
        "type": "Point"
      },
      "id": "ci2tjvr5m00k0cwqm888dr6if",
      "properties": {
        "description": "",
        "id": "marker-i2tjsiew3h",
        "marker-color": "",
        "marker-size": "",
        "marker-symbol": "monument",
        "name": "Manukau RSA memorial gardens",
        "title": "Manukau RSA memorial gardens"
      },
      "type": "Feature"
    },
    {
      "geometry": {
        "coordinates": [
          174.895736,
          -37.020801
        ],
        "type": "Point"
      },
      "id": "ci2tjvr5n00k1cwqm12xk634v",
      "properties": {
        "description": "",
        "id": "marker-i2tjsiew3i",
        "marker-color": "",
        "marker-size": "",
        "marker-symbol": "monument",
        "name": "Manurewa First World War memorial",
        "title": "Manurewa First World War memorial"
      },
      "type": "Feature"
    },
    {
      "geometry": {
        "coordinates": [
          174.899575,
          -37.021366
        ],
        "type": "Point"
      },
      "id": "ci2tjvr5o00k2cwqmnljlzeho",
      "properties": {
        "description": "",
        "id": "marker-i2tjsiew3j",
        "marker-color": "",
        "marker-size": "",
        "marker-symbol": "monument",
        "name": "Manurewa memorial trees",
        "title": "Manurewa memorial trees"
      },
      "type": "Feature"
    },
    {
      "geometry": {
        "coordinates": [
          174.881763,
          -37.012343
        ],
        "type": "Point"
      },
      "id": "ci2tjvr5p00k3cwqmij5dr9o7",
      "properties": {
        "description": "",
        "id": "marker-i2tjsiew3k",
        "marker-color": "",
        "marker-size": "",
        "marker-symbol": "monument",
        "name": "Manurewa War Memorial Park",
        "title": "Manurewa War Memorial Park"
      },
      "type": "Feature"
    },
    {
      "geometry": {
        "coordinates": [
          174.717809,
          -36.352555
        ],
        "type": "Point"
      },
      "id": "ci2tjvr5q00k4cwqm00lo86pr",
      "properties": {
        "description": "",
        "id": "marker-i2tjsiew3l",
        "marker-color": "",
        "marker-size": "",
        "marker-symbol": "monument",
        "name": "Matakana war memorial",
        "title": "Matakana war memorial"
      },
      "type": "Feature"
    },
    {
      "geometry": {
        "coordinates": [
          174.6155,
          -37.111846
        ],
        "type": "Point"
      },
      "id": "ci2tjvr5r00k5cwqmw6cl032g",
      "properties": {
        "description": "",
        "id": "marker-i2tjsiew3m",
        "marker-color": "",
        "marker-size": "",
        "marker-symbol": "monument",
        "name": "Matakawau war memorial hall",
        "title": "Matakawau war memorial hall"
      },
      "type": "Feature"
    },
    {
      "geometry": {
        "coordinates": [
          174.816942,
          -37.20305
        ],
        "type": "Point"
      },
      "id": "ci2tjvr5t00k6cwqmhodc3cpl",
      "properties": {
        "description": "",
        "id": "marker-i2tjsiew3n",
        "marker-color": "",
        "marker-size": "",
        "marker-symbol": "monument",
        "name": "Mauku Victory Hall",
        "title": "Mauku Victory Hall"
      },
      "type": "Feature"
    },
    {
      "geometry": {
        "coordinates": [
          174.756768,
          -36.8771
        ],
        "type": "Point"
      },
      "id": "ci2tjvr5u00k7cwqmb6zwibr8",
      "properties": {
        "description": "",
        "id": "marker-i2tjsiex3o",
        "marker-color": "",
        "marker-size": "",
        "marker-symbol": "monument",
        "name": "Mt Eden First World War memorial",
        "title": "Mt Eden First World War memorial"
      },
      "type": "Feature"
    },
    {
      "geometry": {
        "coordinates": [
          174.74743,
          -36.88583
        ],
        "type": "Point"
      },
      "id": "ci2tjvr5v00k8cwqmqcxwnm54",
      "properties": {
        "description": "",
        "id": "marker-i2tjsiex3p",
        "marker-color": "",
        "marker-size": "",
        "marker-symbol": "monument",
        "name": "Mt Eden memorial hall",
        "title": "Mt Eden memorial hall"
      },
      "type": "Feature"
    },
    {
      "geometry": {
        "coordinates": [
          174.73506,
          -36.903784
        ],
        "type": "Point"
      },
      "id": "ci2tjvr5w00k9cwqmuqcmltcp",
      "properties": {
        "description": "",
        "id": "marker-i2tjsiex3q",
        "marker-color": "",
        "marker-size": "",
        "marker-symbol": "monument",
        "name": "Mt Roskill war memorial park",
        "title": "Mt Roskill war memorial park"
      },
      "type": "Feature"
    },
    {
      "geometry": {
        "coordinates": [
          174.90141,
          -36.8471
        ],
        "type": "Point"
      },
      "id": "ci2tjvr5w00kacwqmgkxsdp5l",
      "properties": {
        "description": "",
        "id": "marker-i2tjsiex3r",
        "marker-color": "",
        "marker-size": "",
        "marker-symbol": "monument",
        "name": "Musick Memorial Radio Station, Bucklands Beach",
        "title": "Musick Memorial Radio Station, Bucklands Beach"
      },
      "type": "Feature"
    },
    {
      "geometry": {
        "coordinates": [
          174.683821,
          -36.908442
        ],
        "type": "Point"
      },
      "id": "ci2tjvr5x00kbcwqm7mgxjxsy",
      "properties": {
        "description": "",
        "id": "marker-i2tjsiex3s",
        "marker-color": "",
        "marker-size": "",
        "marker-symbol": "monument",
        "name": "New Lynn memorial square",
        "title": "New Lynn memorial square"
      },
      "type": "Feature"
    },
    {
      "geometry": {
        "coordinates": [
          174.778754,
          -36.865257
        ],
        "type": "Point"
      },
      "id": "ci2tjvr5y00kccwqm6wrvh9np",
      "properties": {
        "description": "",
        "id": "marker-i2tjsiex3t",
        "marker-color": "",
        "marker-size": "",
        "marker-symbol": "monument",
        "name": "Newmarket war memorial",
        "title": "Newmarket war memorial"
      },
      "type": "Feature"
    },
    {
      "geometry": {
        "coordinates": [
          174.743445,
          -36.810823
        ],
        "type": "Point"
      },
      "id": "ci2tjvr5z00kdcwqmhpkzgu60",
      "properties": {
        "description": "",
        "id": "marker-i2tjsiex3u",
        "marker-color": "",
        "marker-size": "",
        "marker-symbol": "monument",
        "name": "Northcote war memorial",
        "title": "Northcote war memorial"
      },
      "type": "Feature"
    },
    {
      "geometry": {
        "coordinates": [
          174.785337,
          -36.925131
        ],
        "type": "Point"
      },
      "id": "ci2tjvr6000kecwqmro1zmeua",
      "properties": {
        "description": "",
        "id": "marker-i2tjsiex3v",
        "marker-color": "",
        "marker-size": "",
        "marker-symbol": "monument",
        "name": "Onehunga soldiers' roll",
        "title": "Onehunga soldiers' roll"
      },
      "type": "Feature"
    },
    {
      "geometry": {
        "coordinates": [
          174.779311,
          -36.917772
        ],
        "type": "Point"
      },
      "id": "ci2tjvr6100kfcwqmintubilb",
      "properties": {
        "description": "",
        "id": "marker-i2tjsiex3w",
        "marker-color": "",
        "marker-size": "",
        "marker-symbol": "monument",
        "name": "Onehunga war memorial",
        "title": "Onehunga war memorial"
      },
      "type": "Feature"
    },
    {
      "geometry": {
        "coordinates": [
          174.78025,
          -36.91734
        ],
        "type": "Point"
      },
      "id": "ci2tjvr6200kgcwqmgl4ud8nl",
      "properties": {
        "description": "",
        "id": "marker-i2tjsiex3x",
        "marker-color": "",
        "marker-size": "",
        "marker-symbol": "monument",
        "name": "Onehunga war memorial pool",
        "title": "Onehunga war memorial pool"
      },
      "type": "Feature"
    },
    {
      "geometry": {
        "coordinates": [
          174.619577,
          -36.912645
        ],
        "type": "Point"
      },
      "id": "ci2tjvr6300khcwqmvqwv01ks",
      "properties": {
        "description": "",
        "id": "marker-i2tjsiex3y",
        "marker-color": "",
        "marker-size": "",
        "marker-symbol": "monument",
        "name": "Oratia School First World War memorial",
        "title": "Oratia School First World War memorial"
      },
      "type": "Feature"
    },
    {
      "geometry": {
        "coordinates": [
          175.226019,
          -36.978691
        ],
        "type": "Point"
      },
      "id": "ci2tjvr6400kicwqm7bhd2na4",
      "properties": {
        "description": "",
        "id": "marker-i2tjsiex3z",
        "marker-color": "",
        "marker-size": "",
        "marker-symbol": "monument",
        "name": "Orere war memorial hall",
        "title": "Orere war memorial hall"
      },
      "type": "Feature"
    },
    {
      "geometry": {
        "coordinates": [
          174.69459,
          -36.582813
        ],
        "type": "Point"
      },
      "id": "ci2tjvr6400kjcwqmgclhph9e",
      "properties": {
        "description": "",
        "id": "marker-i2tjsiex40",
        "marker-color": "",
        "marker-size": "",
        "marker-symbol": "monument",
        "name": "Orewa remembrance reserve",
        "title": "Orewa remembrance reserve"
      },
      "type": "Feature"
    },
    {
      "geometry": {
        "coordinates": [
          174.845031,
          -36.949836
        ],
        "type": "Point"
      },
      "id": "ci2tjvr6500kkcwqm69grpwje",
      "properties": {
        "description": "",
        "id": "marker-i2tjsiex41",
        "marker-color": "",
        "marker-size": "",
        "marker-symbol": "monument",
        "name": "Otahuhu First World War memorial",
        "title": "Otahuhu First World War memorial"
      },
      "type": "Feature"
    },
    {
      "geometry": {
        "coordinates": [
          174.84622,
          -36.947447
        ],
        "type": "Point"
      },
      "id": "ci2tjvr6600klcwqmu39mtg7x",
      "properties": {
        "description": "",
        "id": "marker-i2tjsiex42",
        "marker-color": "",
        "marker-size": "",
        "marker-symbol": "monument",
        "name": "Otahuhu Methodist Church memorial",
        "title": "Otahuhu Methodist Church memorial"
      },
      "type": "Feature"
    },
    {
      "geometry": {
        "coordinates": [
          174.842285,
          -36.943744
        ],
        "type": "Point"
      },
      "id": "ci2tjvr6700kmcwqm5rizy8dd",
      "properties": {
        "description": "",
        "id": "marker-i2tjsiex43",
        "marker-color": "",
        "marker-size": "",
        "marker-symbol": "monument",
        "name": "Otahuhu parish memorial",
        "title": "Otahuhu parish memorial"
      },
      "type": "Feature"
    },
    {
      "geometry": {
        "coordinates": [
          174.845046,
          -36.949791
        ],
        "type": "Point"
      },
      "id": "ci2tjvr6800kncwqmtw5rcbub",
      "properties": {
        "description": "",
        "id": "marker-i2tjsiex44",
        "marker-color": "",
        "marker-size": "",
        "marker-symbol": "monument",
        "name": "Otahuhu railway workshops war memorial",
        "title": "Otahuhu railway workshops war memorial"
      },
      "type": "Feature"
    },
    {
      "geometry": {
        "coordinates": [
          174.843789,
          -36.945244
        ],
        "type": "Point"
      },
      "id": "ci2tjvrpe00kocwqmse91imbr",
      "properties": {
        "description": "",
        "id": "marker-i2tjsiex45",
        "marker-color": "",
        "marker-size": "",
        "marker-symbol": "monument",
        "name": "Otahuhu RSA Memorial Hall",
        "title": "Otahuhu RSA Memorial Hall"
      },
      "type": "Feature"
    },
    {
      "geometry": {
        "coordinates": [
          174.839833,
          -36.943006
        ],
        "type": "Point"
      },
      "id": "ci2tjvrph00kpcwqmwa7xsvte",
      "properties": {
        "description": "",
        "id": "marker-i2tjsiex46",
        "marker-color": "",
        "marker-size": "",
        "marker-symbol": "monument",
        "name": "Otahuhu school memorial gates",
        "title": "Otahuhu school memorial gates"
      },
      "type": "Feature"
    },
    {
      "geometry": {
        "coordinates": [
          174.944127,
          -37.066098
        ],
        "type": "Point"
      },
      "id": "ci2tjvrpk00kqcwqmukftmkkg",
      "properties": {
        "description": "",
        "id": "marker-i2tjsiex47",
        "marker-color": "",
        "marker-size": "",
        "marker-symbol": "monument",
        "name": "Papakura peace oak",
        "title": "Papakura peace oak"
      },
      "type": "Feature"
    },
    {
      "geometry": {
        "coordinates": [
          174.943955,
          -37.06657
        ],
        "type": "Point"
      },
      "id": "ci2tjvrpm00krcwqm9dexiqez",
      "properties": {
        "description": "",
        "id": "marker-i2tjsiex48",
        "marker-color": "",
        "marker-size": "",
        "marker-symbol": "monument",
        "name": "Papakura-Karaka First World War memorial",
        "title": "Papakura-Karaka First World War memorial"
      },
      "type": "Feature"
    },
    {
      "geometry": {
        "coordinates": [
          174.864377,
          -36.973766
        ],
        "type": "Point"
      },
      "id": "ci2tjvrpp00kscwqmgrwb4oh6",
      "properties": {
        "description": "",
        "id": "marker-i2tjsiex49",
        "marker-color": "",
        "marker-size": "",
        "marker-symbol": "monument",
        "name": "Papatoetoe First World War memorial",
        "title": "Papatoetoe First World War memorial"
      },
      "type": "Feature"
    },
    {
      "geometry": {
        "coordinates": [
          174.849505,
          -36.985767
        ],
        "type": "Point"
      },
      "id": "ci2tjvrr200ktcwqmivbq4vq4",
      "properties": {
        "description": "",
        "id": "marker-i2tjsiex4a",
        "marker-color": "",
        "marker-size": "",
        "marker-symbol": "monument",
        "name": "Papatoetoe Orphan Home ",
        "title": "Papatoetoe Orphan Home "
      },
      "type": "Feature"
    },
    {
      "geometry": {
        "coordinates": [
          174.854911,
          -36.980382
        ],
        "type": "Point"
      },
      "id": "ci2tjvrr600kucwqm7tkqsizb",
      "properties": {
        "description": "",
        "id": "marker-i2tjsiex4b",
        "marker-color": "",
        "marker-size": "",
        "marker-symbol": "monument",
        "name": "Papatoetoe war memorial library",
        "title": "Papatoetoe war memorial library"
      },
      "type": "Feature"
    },
    {
      "geometry": {
        "coordinates": [
          174.826938,
          -37.188401
        ],
        "type": "Point"
      },
      "id": "ci2tjvrr800kvcwqmrtetutkj",
      "properties": {
        "description": "",
        "id": "marker-i2tjsiex4c",
        "marker-color": "",
        "marker-size": "",
        "marker-symbol": "monument",
        "name": "Patumahoe First World War memorial hall",
        "title": "Patumahoe First World War memorial hall"
      },
      "type": "Feature"
    },
    {
      "geometry": {
        "coordinates": [
          174.829087,
          -37.187848
        ],
        "type": "Point"
      },
      "id": "ci2tjvrra00kwcwqm857tiuhl",
      "properties": {
        "description": "",
        "id": "marker-i2tjsiex4d",
        "marker-color": "",
        "marker-size": "",
        "marker-symbol": "monument",
        "name": "Patumahoe war memorial domain",
        "title": "Patumahoe war memorial domain"
      },
      "type": "Feature"
    },
    {
      "geometry": {
        "coordinates": [
          174.46849,
          -36.27916
        ],
        "type": "Point"
      },
      "id": "ci2tjvrrc00kxcwqmdr97ura3",
      "properties": {
        "description": "",
        "id": "marker-i2tjsiex4e",
        "marker-color": "",
        "marker-size": "",
        "marker-symbol": "monument",
        "name": "Port Albert memorial",
        "title": "Port Albert memorial"
      },
      "type": "Feature"
    },
    {
      "geometry": {
        "coordinates": [
          174.661746,
          -36.511888
        ],
        "type": "Point"
      },
      "id": "ci2tjvrrf00kycwqmrus9y5lo",
      "properties": {
        "description": "",
        "id": "marker-i2tjsiex4f",
        "marker-color": "",
        "marker-size": "",
        "marker-symbol": "monument",
        "name": "Puhoi war memorial",
        "title": "Puhoi war memorial"
      },
      "type": "Feature"
    },
    {
      "geometry": {
        "coordinates": [
          174.94509,
          -37.18441
        ],
        "type": "Point"
      },
      "id": "ci2tjvru500kzcwqm4o3q5gym",
      "properties": {
        "description": "",
        "id": "marker-i2tjsiex4g",
        "marker-color": "",
        "marker-size": "",
        "marker-symbol": "monument",
        "name": "Pukekohe East School memorial flagpole",
        "title": "Pukekohe East School memorial flagpole"
      },
      "type": "Feature"
    },
    {
      "geometry": {
        "coordinates": [
          174.947254,
          -37.19548
        ],
        "type": "Point"
      },
      "id": "ci2tjvru800l0cwqm1vfche81",
      "properties": {
        "description": "",
        "id": "marker-i2tjsiex4h",
        "marker-color": "",
        "marker-size": "",
        "marker-symbol": "monument",
        "name": "Pukekohe East Second World War memorial plot",
        "title": "Pukekohe East Second World War memorial plot"
      },
      "type": "Feature"
    },
    {
      "geometry": {
        "coordinates": [
          174.904116,
          -37.202334
        ],
        "type": "Point"
      },
      "id": "ci2tjvrub00l1cwqmxihxstmi",
      "properties": {
        "description": "",
        "id": "marker-i2tjsiex4i",
        "marker-color": "",
        "marker-size": "",
        "marker-symbol": "monument",
        "name": "Pukekohe First World War memorial",
        "title": "Pukekohe First World War memorial"
      },
      "type": "Feature"
    },
    {
      "geometry": {
        "coordinates": [
          174.908489,
          -37.200486
        ],
        "type": "Point"
      },
      "id": "ci2tjvrud00l2cwqmu7xmma77",
      "properties": {
        "description": "",
        "id": "marker-i2tjsiex4j",
        "marker-color": "",
        "marker-size": "",
        "marker-symbol": "monument",
        "name": "Pukekohe First World War memorial park",
        "title": "Pukekohe First World War memorial park"
      },
      "type": "Feature"
    },
    {
      "geometry": {
        "coordinates": [
          174.897864,
          -37.209803
        ],
        "type": "Point"
      },
      "id": "ci2tjvrug00l3cwqmiyh1oaci",
      "properties": {
        "description": "",
        "id": "marker-i2tjsiex4k",
        "marker-color": "",
        "marker-size": "",
        "marker-symbol": "monument",
        "name": "Pukekohe RSA memorial",
        "title": "Pukekohe RSA memorial"
      },
      "type": "Feature"
    },
    {
      "geometry": {
        "coordinates": [
          174.900815,
          -37.202623
        ],
        "type": "Point"
      },
      "id": "ci2tjvruj00l4cwqmnpf7kbwa",
      "properties": {
        "description": "",
        "id": "marker-i2tjsiex4l",
        "marker-color": "",
        "marker-size": "",
        "marker-symbol": "monument",
        "name": "Pukekohe School First World War memorial",
        "title": "Pukekohe School First World War memorial"
      },
      "type": "Feature"
    },
    {
      "geometry": {
        "coordinates": [
          174.903821,
          -37.202481
        ],
        "type": "Point"
      },
      "id": "ci2tjvrul00l5cwqm1qhlr3t1",
      "properties": {
        "description": "",
        "id": "marker-i2tjsiex4m",
        "marker-color": "",
        "marker-size": "",
        "marker-symbol": "monument",
        "name": "Pukekohe war memorial hall",
        "title": "Pukekohe war memorial hall"
      },
      "type": "Feature"
    },
    {
      "geometry": {
        "coordinates": [
          174.773895,
          -37.242475
        ],
        "type": "Point"
      },
      "id": "ci2tjvruo00l6cwqmn3bzk3uc",
      "properties": {
        "description": "",
        "id": "marker-i2tjsiex4n",
        "marker-color": "",
        "marker-size": "",
        "marker-symbol": "monument",
        "name": "Pukeoware roll of honour",
        "title": "Pukeoware roll of honour"
      },
      "type": "Feature"
    },
    {
      "geometry": {
        "coordinates": [
          174.87365,
          -37.229145
        ],
        "type": "Point"
      },
      "id": "ci2tjvruq00l7cwqm1syg97br",
      "properties": {
        "description": "",
        "id": "marker-i2tjsiex4o",
        "marker-color": "",
        "marker-size": "",
        "marker-symbol": "monument",
        "name": "Puni memorial park",
        "title": "Puni memorial park"
      },
      "type": "Feature"
    },
    {
      "geometry": {
        "coordinates": [
          174.802255,
          -36.881282
        ],
        "type": "Point"
      },
      "id": "ci2tjvrut00l8cwqmhcdkfgya",
      "properties": {
        "description": "",
        "id": "marker-i2tjsiex4p",
        "marker-color": "",
        "marker-size": "",
        "marker-symbol": "monument",
        "name": "Remuera First World War memorial",
        "title": "Remuera First World War memorial"
      },
      "type": "Feature"
    },
    {
      "geometry": {
        "coordinates": [
          174.793006,
          -36.881332
        ],
        "type": "Point"
      },
      "id": "ci2tjvruv00l9cwqmrtzhjd8h",
      "properties": {
        "description": "",
        "id": "marker-i2tjsiex4q",
        "marker-color": "",
        "marker-size": "",
        "marker-symbol": "monument",
        "name": "Remuera school memorial",
        "title": "Remuera school memorial"
      },
      "type": "Feature"
    },
    {
      "geometry": {
        "coordinates": [
          174.588974,
          -36.761006
        ],
        "type": "Point"
      },
      "id": "ci2tjvruy00lacwqmfw1mvoez",
      "properties": {
        "description": "",
        "id": "marker-i2tjsiex4r",
        "marker-color": "",
        "marker-size": "",
        "marker-symbol": "monument",
        "name": "Riverhead war memorial gates",
        "title": "Riverhead war memorial gates"
      },
      "type": "Feature"
    },
    {
      "geometry": {
        "coordinates": [
          174.789804,
          -36.830577
        ],
        "type": "Point"
      },
      "id": "ci2tjvrv100lbcwqm62pvosge",
      "properties": {
        "description": "",
        "id": "marker-i2tjsiex4s",
        "marker-color": "",
        "marker-size": "",
        "marker-symbol": "monument",
        "name": "Royal NZ Navy memorial",
        "title": "Royal NZ Navy memorial"
      },
      "type": "Feature"
    },
    {
      "geometry": {
        "coordinates": [
          174.716458,
          -36.615427
        ],
        "type": "Point"
      },
      "id": "ci2tjvrv300lccwqmq7nf6urr",
      "properties": {
        "description": "",
        "id": "marker-i2tjsiex4t",
        "marker-color": "",
        "marker-size": "",
        "marker-symbol": "monument",
        "name": "Silverdale RSA Cenotaph",
        "title": "Silverdale RSA Cenotaph"
      },
      "type": "Feature"
    },
    {
      "geometry": {
        "coordinates": [
          174.667494,
          -36.623037
        ],
        "type": "Point"
      },
      "id": "ci2tjvrv500ldcwqmj3orod0o",
      "properties": {
        "description": "",
        "id": "marker-i2tjsiex4u",
        "marker-color": "",
        "marker-size": "",
        "marker-symbol": "monument",
        "name": "Silverdale war memorial",
        "title": "Silverdale war memorial"
      },
      "type": "Feature"
    },
    {
      "geometry": {
        "coordinates": [
          174.747988,
          -36.88397
        ],
        "type": "Point"
      },
      "id": "ci2tjvrv700lecwqm8bijp3gp",
      "properties": {
        "description": "",
        "id": "marker-i2tjsiex4v",
        "marker-color": "",
        "marker-size": "",
        "marker-symbol": "monument",
        "name": "St Alban's Church memorial tower",
        "title": "St Alban's Church memorial tower"
      },
      "type": "Feature"
    },
    {
      "geometry": {
        "coordinates": [
          174.900855,
          -37.201947
        ],
        "type": "Point"
      },
      "id": "ci2tjvrv900lfcwqmhqkzb0jl",
      "properties": {
        "description": "",
        "id": "marker-i2tjsiex4w",
        "marker-color": "",
        "marker-size": "",
        "marker-symbol": "monument",
        "name": "St Andrew's Peace Memorial Church",
        "title": "St Andrew's Peace Memorial Church"
      },
      "type": "Feature"
    },
    {
      "geometry": {
        "coordinates": [
          174.811998,
          -37.201249
        ],
        "type": "Point"
      },
      "id": "ci2tjvrvc00lgcwqmv2t6v4d7",
      "properties": {
        "description": "",
        "id": "marker-i2tjsiex4x",
        "marker-color": "",
        "marker-size": "",
        "marker-symbol": "monument",
        "name": "St Bride's roll of honour",
        "title": "St Bride's roll of honour"
      },
      "type": "Feature"
    },
    {
      "geometry": {
        "coordinates": [
          174.763421,
          -36.863874
        ],
        "type": "Point"
      },
      "id": "ci2tjvrve00lhcwqmu5u9xwx4",
      "properties": {
        "description": "",
        "id": "marker-i2tjsiex4y",
        "marker-color": "",
        "marker-size": "",
        "marker-symbol": "monument",
        "name": "St Davids memorial church",
        "title": "St Davids memorial church"
      },
      "type": "Feature"
    },
    {
      "geometry": {
        "coordinates": [
          174.857429,
          -36.850211
        ],
        "type": "Point"
      },
      "id": "ci2tjvrvg00licwqmo9qw4pi6",
      "properties": {
        "description": "",
        "id": "marker-i2tjsiex4z",
        "marker-color": "",
        "marker-size": "",
        "marker-symbol": "monument",
        "name": "St Heliers war memorial fountain",
        "title": "St Heliers war memorial fountain"
      },
      "type": "Feature"
    },
    {
      "geometry": {
        "coordinates": [
          174.85728,
          -36.850214
        ],
        "type": "Point"
      },
      "id": "ci2tjvrvi00ljcwqmag19me74",
      "properties": {
        "description": "",
        "id": "marker-i2tjsiex50",
        "marker-color": "",
        "marker-size": "",
        "marker-symbol": "monument",
        "name": "St Heliers war memorial seats",
        "title": "St Heliers war memorial seats"
      },
      "type": "Feature"
    },
    {
      "geometry": {
        "coordinates": [
          174.999176,
          -37.036573
        ],
        "type": "Point"
      },
      "id": "ci2tjvrvl00lkcwqmk16y1z85",
      "properties": {
        "description": "",
        "id": "marker-i2tjsiex51",
        "marker-color": "",
        "marker-size": "",
        "marker-symbol": "monument",
        "name": "St James Church, Ardmore",
        "title": "St James Church, Ardmore"
      },
      "type": "Feature"
    },
    {
      "geometry": {
        "coordinates": [
          174.859476,
          -36.967873
        ],
        "type": "Point"
      },
      "id": "ci2tjvrvn00llcwqmkm03hxvf",
      "properties": {
        "description": "",
        "id": "marker-i2tjsiex52",
        "marker-color": "",
        "marker-size": "",
        "marker-symbol": "monument",
        "name": "St Johns Presbyterian Church roll of honour",
        "title": "St Johns Presbyterian Church roll of honour"
      },
      "type": "Feature"
    },
    {
      "geometry": {
        "coordinates": [
          174.700196,
          -36.897967
        ],
        "type": "Point"
      },
      "id": "ci2tjvrvq00lmcwqmj2qw089o",
      "properties": {
        "description": "",
        "id": "marker-i2tjsiex53",
        "marker-color": "",
        "marker-size": "",
        "marker-symbol": "monument",
        "name": "St Judes Church memorial",
        "title": "St Judes Church memorial"
      },
      "type": "Feature"
    },
    {
      "geometry": {
        "coordinates": [
          174.893397,
          -37.024457
        ],
        "type": "Point"
      },
      "id": "ci2tjvrvs00lncwqmuy3shnsn",
      "properties": {
        "description": "",
        "id": "marker-i2tjsiex54",
        "marker-color": "",
        "marker-size": "",
        "marker-symbol": "monument",
        "name": "St Luke's memorial trees, Manurewa",
        "title": "St Luke's memorial trees, Manurewa"
      },
      "type": "Feature"
    },
    {
      "geometry": {
        "coordinates": [
          174.76827,
          -36.854433
        ],
        "type": "Point"
      },
      "id": "ci2tjvrvu00locwqmrauevx6i",
      "properties": {
        "description": "",
        "id": "marker-i2tjsiex55",
        "marker-color": "",
        "marker-size": "",
        "marker-symbol": "monument",
        "name": "St Paul's Church, Auckland",
        "title": "St Paul's Church, Auckland"
      },
      "type": "Feature"
    },
    {
      "geometry": {
        "coordinates": [
          174.768849,
          -36.787826
        ],
        "type": "Point"
      },
      "id": "ci2tjvrvx00lpcwqm7v53ohsx",
      "properties": {
        "description": "",
        "id": "marker-i2tjsiex56",
        "marker-color": "",
        "marker-size": "",
        "marker-symbol": "monument",
        "name": "Takapuna School First World War memorial",
        "title": "Takapuna School First World War memorial"
      },
      "type": "Feature"
    },
    {
      "geometry": {
        "coordinates": [
          174.773189,
          -36.78911
        ],
        "type": "Point"
      },
      "id": "ci2tjvrvz00lqcwqm1cvcbrsp",
      "properties": {
        "description": "",
        "id": "marker-i2tjsiex57",
        "marker-color": "",
        "marker-size": "",
        "marker-symbol": "monument",
        "name": "Takapuna war memorial",
        "title": "Takapuna war memorial"
      },
      "type": "Feature"
    },
    {
      "geometry": {
        "coordinates": [
          174.85857,
          -36.851033
        ],
        "type": "Point"
      },
      "id": "ci2tjvrw100lrcwqmjcibwn1p",
      "properties": {
        "description": "",
        "id": "marker-i2tjsiex58",
        "marker-color": "",
        "marker-size": "",
        "marker-symbol": "monument",
        "name": "Tamaki war memorial hall",
        "title": "Tamaki war memorial hall"
      },
      "type": "Feature"
    },
    {
      "geometry": {
        "coordinates": [
          174.65536,
          -36.842379
        ],
        "type": "Point"
      },
      "id": "ci2tjvrw300lscwqmriz1foss",
      "properties": {
        "description": "",
        "id": "marker-i2tjsiex59",
        "marker-color": "",
        "marker-size": "",
        "marker-symbol": "monument",
        "name": "Te Atatū Lancaster Memorial",
        "title": "Te Atatū Lancaster Memorial"
      },
      "type": "Feature"
    },
    {
      "geometry": {
        "coordinates": [
          174.670461,
          -37.170369
        ],
        "type": "Point"
      },
      "id": "ci2tjvrw600ltcwqmc3ejnzve",
      "properties": {
        "description": "",
        "id": "marker-i2tjsiex5a",
        "marker-color": "",
        "marker-size": "",
        "marker-symbol": "monument",
        "name": "Te Toro and Kohekohe roll of honour",
        "title": "Te Toro and Kohekohe roll of honour"
      },
      "type": "Feature"
    },
    {
      "geometry": {
        "coordinates": [
          174.655852,
          -36.938681
        ],
        "type": "Point"
      },
      "id": "ci2tjvrw800lucwqmgf10nmqf",
      "properties": {
        "description": "",
        "id": "marker-i2tjsiex5b",
        "marker-color": "",
        "marker-size": "",
        "marker-symbol": "monument",
        "name": "Titirangi war memorial ",
        "title": "Titirangi war memorial "
      },
      "type": "Feature"
    },
    {
      "geometry": {
        "coordinates": [
          174.655635,
          -36.938977
        ],
        "type": "Point"
      },
      "id": "ci2tjvrwa00lvcwqmq17zv73q",
      "properties": {
        "description": "",
        "id": "marker-i2tjsiex5c",
        "marker-color": "",
        "marker-size": "",
        "marker-symbol": "monument",
        "name": "Titirangi war memorial tablet",
        "title": "Titirangi war memorial tablet"
      },
      "type": "Feature"
    },
    {
      "geometry": {
        "coordinates": [
          174.632505,
          -36.230813
        ],
        "type": "Point"
      },
      "id": "ci2tjvrwd00lwcwqmzwzbpsbs",
      "properties": {
        "description": "",
        "id": "marker-i2tjsiex5d",
        "marker-color": "",
        "marker-size": "",
        "marker-symbol": "monument",
        "name": "Tomarata war memorial",
        "title": "Tomarata war memorial"
      },
      "type": "Feature"
    },
    {
      "geometry": {
        "coordinates": [
          174.751994,
          -37.138257
        ],
        "type": "Point"
      },
      "id": "ci2tjvrwf00lxcwqmz8qlz4l9",
      "properties": {
        "description": "",
        "id": "marker-i2tjsiex5e",
        "marker-color": "",
        "marker-size": "",
        "marker-symbol": "monument",
        "name": "Waiau Pa First World War memorial",
        "title": "Waiau Pa First World War memorial"
      },
      "type": "Feature"
    },
    {
      "geometry": {
        "coordinates": [
          174.654873,
          -36.902081
        ],
        "type": "Point"
      },
      "id": "ci2tjvrxt00lycwqmwwv4chrb",
      "properties": {
        "description": "",
        "id": "marker-i2tjsiex5f",
        "marker-color": "",
        "marker-size": "",
        "marker-symbol": "monument",
        "name": "Waikumete First World War memorial",
        "title": "Waikumete First World War memorial"
      },
      "type": "Feature"
    },
    {
      "geometry": {
        "coordinates": [
          174.492632,
          -36.766591
        ],
        "type": "Point"
      },
      "id": "ci2tjvrxw00lzcwqmljzvvlws",
      "properties": {
        "description": "",
        "id": "marker-i2tjsiex5g",
        "marker-color": "",
        "marker-size": "",
        "marker-symbol": "monument",
        "name": "Waimauku war memorial hall",
        "title": "Waimauku war memorial hall"
      },
      "type": "Feature"
    },
    {
      "geometry": {
        "coordinates": [
          174.681099,
          -37.21205
        ],
        "type": "Point"
      },
      "id": "ci2tjvrxy00m0cwqm8sot1ub6",
      "properties": {
        "description": "",
        "id": "marker-i2tjsiex5h",
        "marker-color": "",
        "marker-size": "",
        "marker-symbol": "monument",
        "name": "Waipipi war memorial rolls",
        "title": "Waipipi war memorial rolls"
      },
      "type": "Feature"
    },
    {
      "geometry": {
        "coordinates": [
          174.73108,
          -37.255376
        ],
        "type": "Point"
      },
      "id": "ci2tjvry100m1cwqmm6cba8xf",
      "properties": {
        "description": "",
        "id": "marker-i2tjsiex5i",
        "marker-color": "",
        "marker-size": "",
        "marker-symbol": "monument",
        "name": "Waiuku First World War memorial",
        "title": "Waiuku First World War memorial"
      },
      "type": "Feature"
    },
    {
      "geometry": {
        "coordinates": [
          174.73301,
          -37.24759
        ],
        "type": "Point"
      },
      "id": "ci2tjvry300m2cwqmb72nvxd7",
      "properties": {
        "description": "",
        "id": "marker-i2tjsiex5j",
        "marker-color": "",
        "marker-size": "",
        "marker-symbol": "monument",
        "name": "Waiuku school memorial trees",
        "title": "Waiuku school memorial trees"
      },
      "type": "Feature"
    },
    {
      "geometry": {
        "coordinates": [
          174.731049,
          -37.25122
        ],
        "type": "Point"
      },
      "id": "ci2tjvry600m3cwqmfts5uc98",
      "properties": {
        "description": "",
        "id": "marker-i2tjsiex5k",
        "marker-color": "",
        "marker-size": "",
        "marker-symbol": "monument",
        "name": "Waiuku war memorial hall",
        "title": "Waiuku war memorial hall"
      },
      "type": "Feature"
    },
    {
      "geometry": {
        "coordinates": [
          174.650156,
          -36.557195
        ],
        "type": "Point"
      },
      "id": "ci2tjvry800m4cwqmybme1tul",
      "properties": {
        "description": "",
        "id": "marker-i2tjsiex5l",
        "marker-color": "",
        "marker-size": "",
        "marker-symbol": "monument",
        "name": "Waiwera war memorial",
        "title": "Waiwera war memorial"
      },
      "type": "Feature"
    },
    {
      "geometry": {
        "coordinates": [
          174.801769,
          -36.812854
        ],
        "type": "Point"
      },
      "id": "ci2tjvrya00m5cwqmhsywijea",
      "properties": {
        "description": "",
        "id": "marker-i2tjsiex5m",
        "marker-color": "",
        "marker-size": "",
        "marker-symbol": "monument",
        "name": "Wakatere Boating Club Memorial Tower",
        "title": "Wakatere Boating Club Memorial Tower"
      },
      "type": "Feature"
    },
    {
      "geometry": {
        "coordinates": [
          174.664142,
          -36.401302
        ],
        "type": "Point"
      },
      "id": "ci2tjvryd00m6cwqmm9n3clvq",
      "properties": {
        "description": "",
        "id": "marker-i2tjsiex5n",
        "marker-color": "",
        "marker-size": "",
        "marker-symbol": "monument",
        "name": "Warkworth war memorial",
        "title": "Warkworth war memorial"
      },
      "type": "Feature"
    },